{
"type": "FeatureCollection",
"name": "ludhiana_land_values",
"crs": { "type": "name", "properties": { "name": "urn:ogc:def:crs:OGC:1.3:CRS84" } },
"features": [
{ "type": "Feature", "properties": { "village_name": "Ludhiana City", "tehsil": "Ludhiana Central", "land_type": "Agricultural", "rate_per_acre_inr": 8500000, "latitude": 30.901, "longitude": 75.8573 }, "geometry": { "type": "Point", "coordinates": [ 75.8573, 30.901 ] } },
{ "type": "Feature", "properties": { "village_name": "Ludhiana City", "tehsil": "Ludhiana Central", "land_type": "Residential", "rate_per_acre_inr": 25000000, "latitude": 30.901, "longitude": 75.8573 }, "geometry": { "type": "Point", "coordinates": [ 75.8573, 30.901 ] } },
{ "type": "Feature", "properties": { "village_name": "Salem Tabri", "tehsil": "Ludhiana West", "land_type": "Agricultural", "rate_per_acre_inr": 6500000, "latitude": 30.8712, "longitude": 75.8124 }, "geometry": { "type": "Point", "coordinates": [ 75.8124, 30.8712 ] } },
{ "type": "Feature", "properties": { "village_name": "Gill", "tehsil": "Ludhiana West", "land_type": "Agricultural", "rate_per_acre_inr": 5500000, "latitude": 30.8756, "longitude": 75.9021 }, "geometry": { "type": "Point", "coordinates": [ 75.9021, 30.8756 ] } },
{ "type": "Feature", "properties": { "village_name": "Mullanpur Dakha", "tehsil": "Mullanpur Dakha", "land_type": "Agricultural", "rate_per_acre_inr": 4500000, "latitude": 30.8986, "longitude": 75.7652 }, "geometry": { "type": "Point", "coordinates": [ 75.7652, 30.8986 ] } },
{ "type": "Feature", "properties": { "village_name": "Sahnewal", "tehsil": "Sahnewal", "land_type": "Agricultural", "rate_per_acre_inr": 6000000, "latitude": 30.8542, "longitude": 75.9312 }, "geometry": { "type": "Point", "coordinates": [ 75.9312, 30.8542 ] } },
{ "type": "Feature", "properties": { "village_name": "Dehlon", "tehsil": "Dehlon", "land_type": "Agricultural", "rate_per_acre_inr": 3800000, "latitude": 30.7823, "longitude": 75.8934 }, "geometry": { "type": "Point", "coordinates": [ 75.8934, 30.7823 ] } },
{ "type": "Feature", "properties": { "village_name": "Khanna", "tehsil": "Khanna", "land_type": "Agricultural", "rate_per_acre_inr": 4500000, "latitude": 30.7046, "longitude": 76.2179 }, "geometry": { "type": "Point", "coordinates": [ 76.2179, 30.7046 ] } },
{ "type": "Feature", "properties": { "village_name": "Khanna", "tehsil": "Khanna", "land_type": "Commercial", "rate_per_acre_inr": 12000000, "latitude": 30.7046, "longitude": 76.2179 }, "geometry": { "type": "Point", "coordinates": [ 76.2179, 30.7046 ] } },
{ "type": "Feature", "properties": { "village_name": "Samrala", "tehsil": "Samrala", "land_type": "Agricultural", "rate_per_acre_inr": 5000000, "latitude": 30.8368, "longitude": 76.1924 }, "geometry": { "type": "Point", "coordinates": [ 76.1924, 30.8368 ] } },
{ "type": "Feature", "properties": { "village_name": "Machhiwara", "tehsil": "Machhiwara", "land_type": "Agricultural", "rate_per_acre_inr": 3200000, "latitude": 30.9254, "longitude": 76.1879 }, "geometry": { "type": "Point", "coordinates": [ 76.1879, 30.9254 ] } },
{ "type": "Feature", "properties": { "village_name": "Jagraon", "tehsil": "Jagraon", "land_type": "Agricultural", "rate_per_acre_inr": 3500000, "latitude": 30.7895, "longitude": 75.4744 }, "geometry": { "type": "Point", "coordinates": [ 75.4744, 30.7895 ] } },
{ "type": "Feature", "properties": { "village_name": "Jagraon", "tehsil": "Jagraon", "land_type": "Commercial", "rate_per_acre_inr": 9000000, "latitude": 30.7895, "longitude": 75.4744 }, "geometry": { "type": "Point", "coordinates": [ 75.4744, 30.7895 ] } },
{ "type": "Feature", "properties": { "village_name": "Raikot", "tehsil": "Raikot", "land_type": "Agricultural", "rate_per_acre_inr": 2800000, "latitude": 30.6487, "longitude": 75.6026 }, "geometry": { "type": "Point", "coordinates": [ 75.6026, 30.6487 ] } },
{ "type": "Feature", "properties": { "village_name": "Payal", "tehsil": "Payal", "land_type": "Agricultural", "rate_per_acre_inr": 2500000, "latitude": 30.6812, "longitude": 76.0841 }, "geometry": { "type": "Point", "coordinates": [ 76.0841, 30.6812 ] } },
{ "type": "Feature", "properties": { "village_name": "Doraha", "tehsil": "Khanna", "land_type": "Agricultural", "rate_per_acre_inr": 3800000, "latitude": 30.7963, "longitude": 76.0263 }, "geometry": { "type": "Point", "coordinates": [ 76.0263, 30.7963 ] } },
{ "type": "Feature", "properties": { "village_name": "Sudhar", "tehsil": "Ludhiana East", "land_type": "Agricultural", "rate_per_acre_inr": 4200000, "latitude": 30.9645, "longitude": 75.7124 }, "geometry": { "type": "Point", "coordinates": [ 75.7124, 30.9645 ] } },
{ "type": "Feature", "properties": { "village_name": "Koom Kalan", "tehsil": "Koom Kalan", "land_type": "Agricultural", "rate_per_acre_inr": 3000000, "latitude": 30.8234, "longitude": 76.0456 }, "geometry": { "type": "Point", "coordinates": [ 76.0456, 30.8234 ] } },
{ "type": "Feature", "properties": { "village_name": "Sidhwan Bet", "tehsil": "Sidhwan Bet", "land_type": "Agricultural", "rate_per_acre_inr": 2700000, "latitude": 30.7123, "longitude": 75.6789 }, "geometry": { "type": "Point", "coordinates": [ 75.6789, 30.7123 ] } },
{ "type": "Feature", "properties": { "village_name": "Hambran", "tehsil": "Ludhiana East", "land_type": "Agricultural", "rate_per_acre_inr": 5200000, "latitude": 30.9234, "longitude": 75.8012 }, "geometry": { "type": "Point", "coordinates": [ 75.8012, 30.9234 ] } },
{ "type": "Feature", "properties": { "village_name": "Dhandari", "tehsil": "Ludhiana East", "land_type": "Agricultural", "rate_per_acre_inr": 7000000, "latitude": 30.9312, "longitude": 75.8834 }, "geometry": { "type": "Point", "coordinates": [ 75.8834, 30.9312 ] } },
{ "type": "Feature", "properties": { "village_name": "Pakhowal", "tehsil": "Ludhiana East", "land_type": "Agricultural", "rate_per_acre_inr": 6200000, "latitude": 30.8923, "longitude": 75.8345 }, "geometry": { "type": "Point", "coordinates": [ 75.8345, 30.8923 ] } },
{ "type": "Feature", "properties": { "village_name": "Barewal", "tehsil": "Ludhiana West", "land_type": "Agricultural", "rate_per_acre_inr": 5800000, "latitude": 30.8645, "longitude": 75.8234 }, "geometry": { "type": "Point", "coordinates": [ 75.8234, 30.8645 ] } },
{ "type": "Feature", "properties": { "village_name": "Tajpur", "tehsil": "Ludhiana West", "land_type": "Agricultural", "rate_per_acre_inr": 5000000, "latitude": 30.8823, "longitude": 75.7934 }, "geometry": { "type": "Point", "coordinates": [ 75.7934, 30.8823 ] } },
{ "type": "Feature", "properties": { "village_name": "Daad", "tehsil": "Ludhiana West", "land_type": "Agricultural", "rate_per_acre_inr": 4800000, "latitude": 30.8734, "longitude": 75.7823 }, "geometry": { "type": "Point", "coordinates": [ 75.7823, 30.8734 ] } },
{ "type": "Feature", "properties": { "village_name": "Laddowal", "tehsil": "Ludhiana East", "land_type": "Agricultural", "rate_per_acre_inr": 5500000, "latitude": 30.9456, "longitude": 75.8923 }, "geometry": { "type": "Point", "coordinates": [ 75.8923, 30.9456 ] } },
{ "type": "Feature", "properties": { "village_name": "Sherpur", "tehsil": "Ludhiana East", "land_type": "Agricultural", "rate_per_acre_inr": 4700000, "latitude": 30.9123, "longitude": 75.8567 }, "geometry": { "type": "Point", "coordinates": [ 75.8567, 30.9123 ] } },
{ "type": "Feature", "properties": { "village_name": "Jodhan", "tehsil": "Ludhiana West", "land_type": "Agricultural", "rate_per_acre_inr": 4300000, "latitude": 30.8456, "longitude": 75.7456 }, "geometry": { "type": "Point", "coordinates": [ 75.7456, 30.8456 ] } },
{ "type": "Feature", "properties": { "village_name": "Noorpur", "tehsil": "Samrala", "land_type": "Agricultural", "rate_per_acre_inr": 3600000, "latitude": 30.8123, "longitude": 76.1234 }, "geometry": { "type": "Point", "coordinates": [ 76.1234, 30.8123 ] } },
{ "type": "Feature", "properties": { "village_name": "Bhattian", "tehsil": "Jagraon", "land_type": "Agricultural", "rate_per_acre_inr": 3100000, "latitude": 30.7456, "longitude": 75.5234 }, "geometry": { "type": "Point", "coordinates": [ 75.5234, 30.7456 ] } },
{ "type": "Feature", "properties": { "village_name": "Mehatpur", "tehsil": "Jagraon", "land_type": "Agricultural", "rate_per_acre_inr": 2900000, "latitude": 30.7234, "longitude": 75.4923 }, "geometry": { "type": "Point", "coordinates": [ 75.4923, 30.7234 ] } },
{ "type": "Feature", "properties": { "village_name": "Talwandi", "tehsil": "Raikot", "land_type": "Agricultural", "rate_per_acre_inr": 2600000, "latitude": 30.6234, "longitude": 75.5823 }, "geometry": { "type": "Point", "coordinates": [ 75.5823, 30.6234 ] } },
{ "type": "Feature", "properties": { "village_name": "Dhaula", "tehsil": "Raikot", "land_type": "Agricultural", "rate_per_acre_inr": 2400000, "latitude": 30.6123, "longitude": 75.6234 }, "geometry": { "type": "Point", "coordinates": [ 75.6234, 30.6123 ] } },
{ "type": "Feature", "properties": { "village_name": "Rurka", "tehsil": "Khanna", "land_type": "Agricultural", "rate_per_acre_inr": 4000000, "latitude": 30.7234, "longitude": 76.1823 }, "geometry": { "type": "Point", "coordinates": [ 76.1823, 30.7234 ] } },
{ "type": "Feature", "properties": { "village_name": "Fatehgarh", "tehsil": "Khanna", "land_type": "Agricultural", "rate_per_acre_inr": 4200000, "latitude": 30.7345, "longitude": 76.2034 }, "geometry": { "type": "Point", "coordinates": [ 76.2034, 30.7345 ] } },
{ "type": "Feature", "properties": { "village_name": "Malerkotla Road", "tehsil": "Jagraon", "land_type": "Agricultural", "rate_per_acre_inr": 3300000, "latitude": 30.7567, "longitude": 75.5123 }, "geometry": { "type": "Point", "coordinates": [ 75.5123, 30.7567 ] } },
{ "type": "Feature", "properties": { "village_name": "Ayali", "tehsil": "Ludhiana West", "land_type": "Agricultural", "rate_per_acre_inr": 5100000, "latitude": 30.8567, "longitude": 75.7678 }, "geometry": { "type": "Point", "coordinates": [ 75.7678, 30.8567 ] } },
{ "type": "Feature", "properties": { "village_name": "Haibowal", "tehsil": "Ludhiana West", "land_type": "Agricultural", "rate_per_acre_inr": 6800000, "latitude": 30.8878, "longitude": 75.8123 }, "geometry": { "type": "Point", "coordinates": [ 75.8123, 30.8878 ] } },
{ "type": "Feature", "properties": { "village_name": "Dugri", "tehsil": "Ludhiana East", "land_type": "Agricultural", "rate_per_acre_inr": 7200000, "latitude": 30.8756, "longitude": 75.8678 }, "geometry": { "type": "Point", "coordinates": [ 75.8678, 30.8756 ] } },
{ "type": "Feature", "properties": { "village_name": "Rajguru Nagar", "tehsil": "Ludhiana East", "land_type": "Residential", "rate_per_acre_inr": 18000000, "latitude": 30.9012, "longitude": 75.8534 }, "geometry": { "type": "Point", "coordinates": [ 75.8534, 30.9012 ] } }
]
}
